{
"name": "File",
"red": [
{ "type": "Feature", "properties": { "Name": "Lugar de nacimiento de: Alex Garcia", "description": "\"Estoy en Barcelona\"" }, "geometry": { "type": "Point", "coordinates": [ 2.139907597140406, 41.379131386671354 ] } },
{ "type": "Feature", "properties": { "Name": "Lugar de residencia de: Alex Garcia", "description": "\"Estoy en Barcelona\"" }, "geometry": { "type": "Point", "coordinates": [ 2.139907597140406, 41.379131386671361 ] } },
{ "type": "Feature", "properties": { "Name": "Lugar de nacimiento de: Bea Alonso", "description": "\"Estoy en Betanzos\"" }, "geometry": { "type": "Point", "coordinates": [ -8.21341602725915, 43.279435717372394 ] } },
{ "type": "Feature", "properties": { "Name": "Lugar de residencia de: Bea Alonso", "description": "\"Estoy en Betanzos\"" }, "geometry": { "type": "Point", "coordinates": [ -8.21341602725915, 43.279435717372401 ] } },
{ "type": "Feature", "properties": { "Name": "Lugar de nacimiento de: Carlos Garcia", "description": "\"Estoy en Madrid\"" }, "geometry": { "type": "Point", "coordinates": [ -3.703809266228836, 40.419738336524148 ] } },
{ "type": "Feature", "properties": { "Name": "Lugar de residencia de: Carlos Garcia", "description": "\"Estoy en Madrid\"" }, "geometry": { "type": "Point", "coordinates": [ -3.703809266228836, 40.41973833652419 ] } },
{ "type": "Feature", "properties": { "Name": "Lugar de nacimiento de: Dani Alonso", "description": "\"Estoy en Gijon\"" }, "geometry": { "type": "Point", "coordinates": [ -5.675495680046025, 43.537660903515153 ] } },
{ "type": "Feature", "properties": { "Name": "Lugar de residencia de: Dani Alonso", "description": "\"Estoy en Gijon\"" }, "geometry": { "type": "Point", "coordinates": [ -5.675495680046025, 43.537660903515189 ] } },
{ "type": "Feature", "properties": { "Name": "Lugar de nacimiento de: Esther Suarez", "description": "\"Estoy en Oviedo\"" }, "geometry": { "type": "Point", "coordinates": [ -5.854880402784319, 43.366592568627844 ] } },
{ "type": "Feature", "properties": { "Name": "Lugar de residencia de: Esther Suarez", "description": "\"Estoy en Oviedo\"" }, "geometry": { "type": "Point", "coordinates": [ -5.854880402784319, 43.366592568627851 ] } },
{ "type": "Feature", "properties": { "Name": "Lugar de nacimiento de: Fran Suarez", "description": "\"Estoy en Lisboa\"" }, "geometry": { "type": "Point", "coordinates": [ -9.1412940498697, 38.74249731147183 ] } },
{ "type": "Feature", "properties": { "Name": "Lugar de residencia de: Fran Suarez", "description": "\"Estoy en Lisboa\"" }, "geometry": { "type": "Point", "coordinates": [ -9.1412940498697, 38.742497311471887 ] } },
{ "type": "Feature", "properties": { "Name": "Lugar de nacimiento de: Guille Garcia", "description": "\"Estoy en Sevilla\"" }, "geometry": { "type": "Point", "coordinates": [ -5.985616904148191, 37.39417303200554 ] } },
{ "type": "Feature", "properties": { "Name": "Lugar de residencia de: Guille Garcia", "description": "\"Estoy en Sevilla\"" }, "geometry": { "type": "Point", "coordinates": [ -5.985616904148191, 37.39417303200559 ] } },
{ "type": "Feature", "properties": { "Name": "Lugar de nacimiento de: Helen Garcia", "description": "\"Estoy en Malaga\"" }, "geometry": { "type": "Point", "coordinates": [ -4.419310620385668, 36.720365521853097 ] } },
{ "type": "Feature", "properties": { "Name": "Lugar de residencia de: Helen Garcia", "description": "\"Estoy en Malaga\"" }, "geometry": { "type": "Point", "coordinates": [ -4.419310620385668, 36.7203655218539 ] } },
{ "type": "Feature", "properties": { "Name": "Lugar de nacimiento de: Ines Garcia", "description": "\"Estoy en Bilbao\"" }, "geometry": { "type": "Point", "coordinates": [ -2.926107745118026, 43.252273507764016 ] } },
{ "type": "Feature", "properties": { "Name": "Lugar de residencia de: Ines Garcia", "description": "\"Estoy en Bilbao\"" }, "geometry": { "type": "Point", "coordinates": [ -2.926107745118026, 43.252273507764016 ] } },
{ "type": "Feature", "properties": { "Name": "Lugar de nacimiento de: Juan Garcia", "description": "\"Estoy en Santader\"" }, "geometry": { "type": "Point", "coordinates": [ -3.822142046935566, 43.468490959136005 ] } },
{ "type": "Feature", "properties": { "Name": "Lugar de residencia de: Juan Garcia", "description": "\"Estoy en Santader\"" }, "geometry": { "type": "Point", "coordinates": [ -3.822142046935566, 43.468490959136012 ] } },
{ "type": "Feature", "properties": { "Name": "Lugar de nacimiento de: Kiliam Garcia", "description": "\"Estoy en Almeria\"" }, "geometry": { "type": "Point", "coordinates": [ -2.467347887677657, 36.838319452545036 ] } },
{ "type": "Feature", "properties": { "Name": "Lugar de residencia de: Kiliam Garcia", "description": "\"Estoy en Almeria\"" }, "geometry": { "type": "Point", "coordinates": [ -2.467347887677657, 36.838319452545036 ] } },
{ "type": "Feature", "properties": { "Name": "Lugar de nacimiento de: Lucia Garcia", "description": "\"Estoy en Jaen\"" }, "geometry": { "type": "Point", "coordinates": [ -3.777300197095887, 37.789134224474822 ] } },
{ "type": "Feature", "properties": { "Name": "Lugar de residencia de: Lucia Garcia", "description": "\"Estoy en Jaen\"" }, "geometry": { "type": "Point", "coordinates": [ -3.777300197095887, 37.789134224474893 ] } },
{ "type": "Feature", "properties": { "Name": "Lugar de nacimiento de: Mario Garcia", "description": "\"Estoy en Leon\"" }, "geometry": { "type": "Point", "coordinates": [ -5.572585467273354, 42.600946867503005 ] } },
{ "type": "Feature", "properties": { "Name": "Lugar de residencia de: Mario Garcia", "description": "\"Estoy en Leon\"" }, "geometry": { "type": "Point", "coordinates": [ -5.572585467273354, 42.600946867503012 ] } }
]
}
